{"company": {"name": "Banana", "size": "1-10", "id": "Banana", "founded": "2013", "industry": "computer software", "location": {"name": "portland, oregon, united states", "locality": "portland", "region": "oregon", "country": "united states", "continent": "north america", "street_address": "1231 northwest hoyt street", "address_line_2": "suite 202", "postal_code": "97209", "geo": "45.52,-122.67"}, "linkedin_url": "linkedin.com/company/Banana", "linkedin_id": 102, "facebook_url": null, "twitter_url": "twitter.com/hallspot", "website": "hallspot.com"}, "location_names": [], "end_date": "2020-02", "start_date": "2020-01", "title": {"name": "co-founder", "role": null, "sub_role": null, "levels": ["owner"]}, "is_primary": false}
{"company": {"name": "Orange", "size": "1-10", "id": "Orange", "founded": "2013", "industry": "computer software", "location": {"name": "portland, oregon, united states", "locality": "portland", "region": "oregon", "country": "united states", "continent": "north america", "street_address": "1231 northwest hoyt street", "address_line_2": "suite 202", "postal_code": "97209", "geo": "45.52,-122.67"}, "linkedin_url": "linkedin.com/company/Orange", "linkedin_id": 103, "facebook_url": null, "twitter_url": "twitter.com/hallspot", "website": "hallspot.com"}, "location_names": [], "end_date": "2020-04", "start_date": "2020-03", "title": {"name": "co-founder", "role": null, "sub_role": null, "levels": ["owner"]}, "is_primary": false}
{"company": {"name": "Pear", "size": "1-10", "id": "Pear", "founded": "2013", "industry": "computer software", "location": {"name": "portland, oregon, united states", "locality": "portland", "region": "oregon", "country": "united states", "continent": "north america", "street_address": "1231 northwest hoyt street", "address_line_2": "suite 202", "postal_code": "97209", "geo": "45.52,-122.67"}, "linkedin_url": "linkedin.com/company/Pear", "linkedin_id": 101, "facebook_url": null, "twitter_url": "twitter.com/hallspot", "website": "hallspot.com"}, "location_names": [], "end_date": null, "start_date": "2020-04", "title": {"name": "co-founder", "role": null, "sub_role": null, "levels": ["owner"]}, "is_primary": true}
